{"hits": [{"point": {"lat": 46.7336815, "lng": 12.3318591}, "extent": [12.3114241, 46.7152337, 12.3527896, 46.7521052], "name": "Vierschach", "country": "Italia", "countrycode": "IT", "city": "Innichen - San Candido", "state": "Trentino-Alto Adige/S\u00fcdtirol", "osm_id": 2068104, "osm_type": "R", "osm_key": "boundary", "osm_value": "administrative"}, {"point": {"lat": 50.8644677, "lng": 3.2989064}, "extent": [3.2987344, 50.8643071, 3.2990972, 50.8646473], "name": "Vierschaar", "country": "Belgi\u00eb / Belgique / Belgien", "countrycode": "BE", "city": "Harelbeke", "state": "West-Vlaanderen", "postcode": "8531", "osm_id": 128491267, "osm_type": "W", "osm_key": "highway", "osm_value": "residential"}, {"point": {"lat": 50.8031455, "lng": 3.7656625}, "extent": [3.7653252, 50.8029082, 3.7659997, 50.8033828], "name": "Vierschaar", "country": "Belgi\u00eb / Belgique / Belgien", "countrycode": "BE", "city": "Nederbrakel", "state": "Oost-Vlaanderen", "postcode": "9660", "osm_id": 1062177501, "osm_type": "W", "osm_key": "highway", "osm_value": "residential"}, {"point": {"lat": 50.7637581, "lng": 3.5266849}, "extent": [3.5250126, 50.7632925, 3.5283784, 50.7641324], "name": "Vierschaar", "country": "Belgi\u00eb / Belgique / Belgien", "countrycode": "BE", "city": "Kluisbergen", "state": "Oost-Vlaanderen", "postcode": "9690", "osm_id": 413375304, "osm_type": "W", "osm_key": "highway", "osm_value": "track"}, {"point": {"lat": 50.8717686, "lng": 3.7732454}, "extent": [3.7719817, 50.8701763, 3.774649, 50.8734699], "name": "Vierschaar", "country": "Belgi\u00eb / Belgique / Belgien", "countrycode": "BE", "city": "Strijpen", "state": "Oost-Vlaanderen", "postcode": "9620", "osm_id": 24738001, "osm_type": "W", "osm_key": "highway", "osm_value": "track"}], "locale": "default"}